City,Lat,Lng,Max Temp,Humidity,Cloudiness,Wind Speed,Country,Date
Bethel,41.3712,-73.414,26.01,35,90,4.61,US,1613148956
Qaanaaq,77.484,-69.3632,2.73,71,0,7.09,GL,1613148956
Galesong,-5.3166,119.3661,77.0,100,20,4.61,ID,1613148956
Atuona,-9.8,-139.0333,78.35,81,19,13.8,PF,1613148956
Ushuaia,-54.8,-68.3,59.0,36,40,17.27,AR,1613148956
Mataura,-46.1927,168.8643,48.0,93,100,1.99,NZ,1613148956
Vaini,-21.2,-175.2,78.8,94,20,5.75,TO,1613148957
Busselton,-33.65,115.3333,59.0,88,0,12.93,AU,1613148957
Kapaa,22.0752,-159.319,71.6,68,40,12.66,US,1613148862
Butaritari,3.0707,172.7902,80.51,83,17,8.72,KI,1613148957
Hobart,-42.8794,147.3294,59.0,63,39,10.36,AU,1613148957
Ahipara,-35.1667,173.1667,56.16,80,0,4.81,NZ,1613148793
Mabay,6.0577,124.4666,79.14,79,89,5.21,PH,1613148958
Sistranda,63.7256,8.834,28.4,64,20,21.85,NO,1613148958
Mar del Plata,-38.0023,-57.5575,69.01,100,90,18.41,AR,1613148958
Carnarvon,-24.8667,113.6333,77.0,100,75,11.5,AU,1613148958
Coahuayana Viejo,18.7333,-103.6833,64.4,77,75,4.27,MX,1613148958
Bluff,-46.6,168.3333,48.0,93,100,1.99,NZ,1613148958
Matamoros,25.5333,-103.25,60.8,59,1,2.84,MX,1613148823
Shache,38.4167,77.2406,42.12,57,18,4.32,CN,1613148959
Granadilla de Abona,28.1188,-16.576,72.0,60,40,20.71,ES,1613148959
Punta Arenas,-53.15,-70.9167,57.2,41,0,12.66,CL,1613148953
Pevek,69.7008,170.3133,-17.54,89,100,4.12,RU,1613148959
Tuktoyaktuk,69.4541,-133.0374,-2.2,71,75,11.5,CA,1613148960
Chokurdakh,70.6333,147.9167,-21.03,75,40,3.36,RU,1613148960
Larreynaga,12.6769,-86.5719,87.8,45,20,6.91,NI,1613148960
Hilo,19.7297,-155.09,64.99,63,40,3.44,US,1613148679
Katsina,12.9894,7.6006,86.36,12,0,8.72,NG,1613148960
Upernavik,72.7868,-56.1549,0.36,81,46,5.37,GL,1613148960
Thompson,55.7435,-97.8558,-38.2,67,1,2.3,CA,1613148961
Geraldton,-28.7667,114.6,71.6,68,40,8.05,AU,1613148961
Hamilton,39.1834,-84.5333,28.99,63,90,6.46,US,1613148961
Lebu,-37.6167,-73.65,65.08,74,11,13.27,CL,1613148961
Port Alfred,-33.5906,26.891,80.13,72,50,10.2,ZA,1613148962
Ribeira Grande,38.5167,-28.7,62.6,59,20,18.41,PT,1613148962
Morgan City,29.6994,-91.2068,44.01,93,90,14.97,US,1613148962
Laguna,38.421,-121.4238,50.0,93,90,4.61,US,1613148963
Castro,-24.7911,-50.0119,69.91,87,100,6.78,BR,1613148844
Saskylakh,71.9167,114.0833,-26.27,83,0,3.78,RU,1613148963
Vardø,70.3705,31.1107,15.8,92,75,6.91,NO,1613148963
Port Pirie,-33.1833,138.0167,66.2,72,90,12.66,AU,1613148963
Rikitea,-23.1203,-134.9692,79.5,72,53,9.19,PF,1613148964
Ponta do Sol,32.6667,-17.1,64.0,69,9,3.0,PT,1613148964
Vila,42.0304,-8.1588,54.0,79,69,8.99,PT,1613148964
Saint Paul Harbor,57.79,-152.4072,33.8,80,90,20.71,US,1613148964
Cabo San Lucas,22.8909,-109.9124,68.0,63,1,11.5,MX,1613148964
Esna,25.2934,32.554,73.4,25,0,4.61,EG,1613148842
Albany,42.6001,-73.9662,15.01,37,72,4.97,US,1613148965
Arraial do Cabo,-22.9661,-42.0278,84.2,65,75,19.57,BR,1613148666
East London,-33.0153,27.9116,82.4,69,0,8.05,ZA,1613148965
Shimanovsk,52.0,127.7,12.02,95,90,9.22,RU,1613148965
Nouadhibou,20.931,-17.0347,77.0,53,0,12.66,MR,1613148965
Wawa,9.9022,4.4192,95.29,10,63,6.31,NG,1613148966
Klaksvík,62.2266,-6.589,37.4,70,40,20.71,FO,1613148966
Airai,-8.9266,125.4092,61.99,100,89,0.22,TL,1613148966
Luorong,24.4058,109.6086,59.31,71,0,3.51,CN,1613148966
Katsuura,35.1333,140.3,48.2,66,75,6.91,JP,1613148967
Kununurra,-15.7667,128.7333,80.6,100,38,2.13,AU,1613148797
Souillac,-20.5167,57.5167,77.0,78,40,3.44,MU,1613148967
Mayskiy,47.6931,40.1025,37.4,87,75,24.61,RU,1613148967
Severo-Kuril'sk,50.6789,156.125,28.27,95,46,11.14,RU,1613148967
Visby,57.6409,18.296,30.2,80,90,14.97,SE,1613148967
Arona,28.0996,-16.681,72.0,60,40,20.71,ES,1613148968
Hermanus,-34.4187,19.2345,73.99,76,15,1.99,ZA,1613148968
Ilulissat,69.2167,-51.1,6.8,61,1,4.61,GL,1613148968
Mount Gambier,-37.8333,140.7667,55.4,94,75,8.05,AU,1613148968
Carballo,43.213,-8.691,59.0,63,20,9.22,ES,1613148968
Anloga,5.7947,0.8973,86.0,79,20,14.97,GH,1613148682
Lüderitz,-26.6481,15.1594,71.15,69,6,11.9,NA,1613148797
Saint-Philippe,-21.3585,55.7679,80.6,74,20,25.32,RE,1613148969
Clyde River,70.4692,-68.5914,1.4,85,75,9.22,CA,1613148969
Pandamatenga,-18.5278,25.627,69.69,91,100,2.68,BW,1613148969
Broome,42.2506,-75.833,19.0,45,90,2.77,US,1613148969
Satuk,41.2263,32.3836,30.13,96,97,5.48,TR,1613148970
Amga,60.8953,131.9608,6.04,92,100,3.33,RU,1613148970
Coquimbo,-29.9533,-71.3436,69.8,68,20,11.5,CL,1613148970
Torbay,47.6666,-52.7314,33.01,93,90,20.71,CA,1613148970
Fredericksburg,38.3032,-77.4605,30.99,55,90,4.18,US,1613148970
Lavrentiya,65.5833,-171.0,-10.43,87,100,21.7,RU,1613148971
Olafsvik,64.8945,-23.7142,38.55,74,63,25.95,IS,1613148971
Bathsheba,13.2167,-59.5167,84.2,54,40,23.02,BB,1613148971
Tuatapere,-46.1333,167.6833,48.0,93,100,1.99,NZ,1613148971
Nemuro,43.3236,145.575,23.2,90,39,5.97,JP,1613148971
Arlit,18.7369,7.3853,85.91,11,47,8.84,NE,1613148972
Vila Velha,-20.3297,-40.2925,87.01,62,40,12.66,BR,1613148972
Ancud,-41.8697,-73.8203,66.2,52,0,6.91,CL,1613148972
Sørland,67.667,12.6934,33.8,69,75,14.97,NO,1613148972
Hebi,35.8992,114.1925,49.08,49,0,0.94,CN,1613148972
Richards Bay,-28.783,32.0377,77.14,90,40,5.14,ZA,1613148972
Haimen,23.1935,116.6142,60.8,88,0,17.76,CN,1613148973
Camocim,-2.9022,-40.8411,84.72,74,56,14.63,BR,1613148973
Sarkand,45.41,79.9186,25.2,88,60,1.95,KZ,1613148973
George Town,5.4112,100.3354,80.6,89,40,4.16,MY,1613148840
Santa Isabel Rio Negro,-0.4139,-65.0192,92.19,47,100,6.49,BR,1613148973
Yellowknife,62.456,-114.3525,-20.0,75,20,4.61,CA,1613148762
New Norfolk,-42.7826,147.0587,57.99,74,55,3.71,AU,1613148974
Seidu,9.0167,-10.6,96.37,18,50,5.88,SL,1613148974
Puerto Ayora,-0.7393,-90.3518,80.6,78,20,5.75,EC,1613148974
Avarua,-21.2078,-159.775,73.4,94,14,2.3,CK,1613148974
Talas,38.6908,35.5538,50.0,53,75,17.27,TR,1613148975
Soyo,-6.1349,12.3689,81.84,76,69,8.79,AO,1613148856
Hong Kong,22.2855,114.1577,64.0,78,12,5.39,HK,1613148842
Nanortalik,60.1432,-45.2371,35.56,81,100,9.51,GL,1613148975
San Patricio,28.017,-97.5169,36.0,100,90,20.71,US,1613148975
Ina,35.8276,137.9538,28.99,81,83,1.01,JP,1613148976
Bathurst,-33.4166,149.5806,66.0,97,100,3.0,AU,1613148976
Treinta y Tres,-33.2333,-54.3833,69.22,89,100,8.63,UY,1613148976
Maniitsoq,65.4167,-52.9,15.03,86,9,4.07,GL,1613148774
Norman Wells,65.282,-126.8329,-22.0,76,1,2.3,CA,1613148976
Prainha,-1.8,-53.48,90.75,51,85,5.08,BR,1613148977
Maceió,-9.6658,-35.7353,82.4,69,75,12.66,BR,1613148930
Atambua,-9.1061,124.8925,75.33,88,97,0.6,ID,1613148681
Yulara,-25.2406,130.9889,64.4,100,90,12.66,AU,1613148977
Enshi,30.3,109.4833,54.46,75,23,1.97,CN,1613148977
Jalu,29.0331,21.5482,60.46,36,0,8.3,LY,1613148977
Zhigansk,66.7697,123.3711,-7.74,90,93,7.23,RU,1613148978
Hobyo,5.3505,48.5268,76.33,73,84,18.25,SO,1613148978
Tual,-5.6667,132.75,83.26,79,100,11.23,ID,1613148820
Oxford,51.7522,-1.256,30.2,59,40,18.41,GB,1613148946
Laureles,26.1092,-97.4941,39.2,93,90,24.16,US,1613148978
Nizhnevartovsk,60.9344,76.5531,-20.2,83,0,4.47,RU,1613148786
Esim,4.8699,-2.2405,84.07,74,58,9.31,GH,1613148979
Bambous Virieux,-20.3428,57.7575,77.0,78,40,3.44,MU,1613148979
Zhezkazgan,47.8043,67.7144,12.78,91,96,7.94,KZ,1613148979
Inhambane,-23.865,35.3833,78.8,94,75,4.61,MZ,1613148883
Navsari,20.9524,72.9324,71.6,56,0,4.03,IN,1613148980
Barrow,71.2906,-156.7887,-11.2,70,90,9.22,US,1613148905
Bull Savanna,17.8868,-77.5902,80.31,63,11,17.38,JM,1613148980
Nová Včelnice,49.2393,15.0726,18.0,69,13,5.84,CZ,1613148980
Mayumba,-3.432,10.6554,81.05,83,93,9.33,GA,1613148980
Anadyr,64.75,177.4833,-29.2,68,76,22.37,RU,1613148980
Mahébourg,-20.4081,57.7,77.0,78,40,3.44,MU,1613148910
Chui,-33.6971,-53.4616,72.39,87,100,7.78,UY,1613148697
Tura,25.5198,90.2201,63.1,42,1,2.33,IN,1613148981
Karlshamn,56.1706,14.8619,28.4,69,20,5.75,SE,1613148981
Saint Anthony,45.0205,-93.218,-7.01,45,1,13.8,US,1613148829
Sawtell,-30.3833,153.1,71.6,83,95,10.36,AU,1613148981
Provideniya,64.3833,-173.3,-5.67,86,100,31.14,RU,1613148982
Māngrol,21.1167,70.1167,70.61,73,0,6.98,IN,1613148982
Port Elizabeth,-33.918,25.5701,75.2,88,75,12.66,ZA,1613148982
Gorom-Gorom,14.4439,-0.2361,96.06,8,0,8.95,BF,1613148982
North Platte,41.1239,-100.7654,-2.2,71,90,8.05,US,1613148982
Miyako,39.6367,141.9525,32.81,89,1,5.01,JP,1613148983
Kjøllefjord,70.9457,27.3465,15.8,73,0,6.91,NO,1613148983
Opunake,-39.4556,173.8583,53.01,81,10,8.99,NZ,1613148983
Quatre Cocos,-20.2078,57.7625,77.0,78,40,3.44,MU,1613148983
Puri,19.8,85.85,73.4,78,43,6.91,IN,1613148983
Pareora,-44.4871,171.2132,51.01,93,11,4.18,NZ,1613148983
Talnakh,69.4865,88.3972,-22.34,85,100,0.87,RU,1613148984
Hearst,49.6835,-83.6665,-11.2,58,52,4.61,CA,1613148984
Monrovia,6.3005,-10.7969,83.35,76,16,11.92,LR,1613148697
Tautira,-17.7333,-149.15,75.2,69,75,9.22,PF,1613148984
Dubbo,-32.25,148.6167,69.8,94,90,2.33,AU,1613148715
Dekar,-21.5333,21.9333,69.24,81,96,3.58,BW,1613148985
Flint,43.0125,-83.6875,19.99,73,90,6.91,US,1613148701
Alexandria,31.2156,29.9553,62.6,77,0,9.22,EG,1613148949
Lompoc,34.6391,-120.4579,53.6,82,90,11.5,US,1613148985
Cape Town,-33.9258,18.4232,75.99,64,0,23.02,ZA,1613148841
Saint George,37.1041,-113.5841,53.01,53,75,6.91,US,1613148911
Czarnków,52.9021,16.5641,26.01,68,90,9.22,PL,1613148986
Longyearbyen,78.2186,15.6401,10.4,79,90,19.57,SJ,1613148986
Dikson,73.5069,80.5464,-23.64,88,100,11.18,RU,1613148986
Jamestown,42.097,-79.2353,21.99,67,90,9.22,US,1613148986
Bonavista,48.6499,-53.1147,32.0,93,100,11.5,CA,1613148986
Udachny,66.4167,112.4,-22.79,77,95,2.46,RU,1613148987
Tanout,14.9709,8.8879,82.83,12,1,8.72,NE,1613148987
Garden City,42.3256,-83.331,21.2,68,90,8.05,US,1613148975
Vila Franca do Campo,37.7167,-25.4333,62.6,82,20,13.8,PT,1613148987
West Bay,19.3667,-81.4167,84.99,61,20,13.8,KY,1613148987
Bandar-e Lengeh,26.5579,54.8807,69.8,88,0,4.61,IR,1613148987
Gilgit,35.9221,74.3087,35.37,58,21,3.13,PK,1613148988
Kaitangata,-46.2817,169.8464,52.0,91,82,2.8,NZ,1613148988
Isangel,-19.55,169.2667,78.73,80,99,4.83,VU,1613148988
Lālmohan,22.3384,90.7419,68.94,65,69,10.42,BD,1613148988
Doha,25.2867,51.5333,71.6,40,0,9.22,QA,1613148735
Mitsamiouli,-11.3847,43.2844,82.56,77,100,13.56,KM,1613148988
Kabalo,-6.05,26.9167,73.49,90,100,2.26,CD,1613148866
Khrebtovaya,56.7032,104.2494,-17.46,89,99,4.21,RU,1613148989
Port Blair,11.6667,92.75,79.05,77,77,8.16,IN,1613148989
Faya,18.3851,42.4509,60.8,77,0,6.91,SA,1613148989
Dourados,-22.2211,-54.8056,79.74,71,31,4.72,BR,1613148989
Monterey,36.2505,-121.2516,43.0,97,2,12.01,US,1613148989
Osypenko,46.9136,36.8253,25.0,53,100,15.99,UA,1613148990
Marquette,46.5333,-87.6335,12.99,68,100,8.99,US,1613148990
Juegang,32.3174,121.1855,51.01,82,34,8.23,CN,1613148990
Nikolskoye,59.7035,30.7861,6.01,85,75,8.95,RU,1613148990
Mandalgovi,45.7625,106.2708,7.3,82,11,12.46,MN,1613148990
Balabac,7.9868,117.0645,79.86,82,75,17.65,PH,1613148991
Karpathos,35.507,27.2132,59.0,63,20,11.5,GR,1613148991
Oodweyne,9.4092,45.064,69.73,34,18,12.68,SO,1613148991
Oyama,36.3,139.8,50.0,93,20,2.3,JP,1613148991
Bria,6.5423,21.9863,84.25,17,6,2.01,CF,1613148991
Jérémie,18.65,-74.1167,81.09,61,0,4.99,HT,1613148991
Poum,-20.2333,164.0167,78.73,72,0,4.94,NC,1613148992
Esperance,-33.8667,121.9,57.2,88,40,4.61,AU,1613148992
Hervey Bay,-25.2986,152.8535,71.01,73,2,1.01,AU,1613148992
Ol'ga,43.7444,135.2892,24.6,96,9,2.91,RU,1613148992
Lorengau,-2.0226,147.2712,81.45,78,91,6.91,PG,1613148992
Tiznit Province,29.5833,-9.5,67.46,51,0,6.89,MA,1613148992
Tiksi,71.6872,128.8694,-10.16,90,0,2.08,RU,1613148993
Talara,-4.5772,-81.2719,87.8,51,20,12.66,PE,1613148977
Ketchikan,55.3422,-131.6461,32.0,37,1,17.27,US,1613148993
Ati,13.2154,18.3353,77.7,17,0,3.02,TD,1613148993
Tegul'det,57.3064,88.1667,-19.12,87,81,4.72,RU,1613148993
Nador,35.174,-2.9287,68.0,72,20,18.41,MA,1613148994
Morăreşti,45.0167,24.5667,19.18,75,15,15.01,RO,1613148994
Sinor,21.9167,73.3333,74.91,24,0,2.39,IN,1613148994
Haikou,20.0458,110.3417,60.8,100,0,4.47,CN,1613148994
Saint-Joseph,-21.3667,55.6167,80.6,74,20,25.32,RE,1613148994
Los Llanos de Aridane,28.6585,-17.9182,68.0,77,40,9.22,ES,1613148995
Griffith,41.5284,-87.4237,19.4,68,1,5.75,US,1613148995
Oranjemund,-28.55,16.4333,67.01,82,25,7.61,NA,1613148995
Ucluelet,48.9329,-125.5528,33.01,43,90,10.36,CA,1613148720
Hūn,29.1268,15.9477,64.35,33,0,5.23,LY,1613148995
Meulaboh,4.1363,96.1285,79.09,80,89,3.98,ID,1613148995
Makakilo City,21.3469,-158.0858,71.6,77,1,3.44,US,1613148996
Horsham,51.064,-0.3272,30.99,59,0,16.11,GB,1613148996
Tasiilaq,65.6145,-37.6368,26.6,74,75,39.12,GL,1613148996
Polson,47.6936,-114.1632,0.0,74,89,0.98,US,1613148996
Metković,43.0542,17.6483,37.4,30,0,18.41,HR,1613148996
Zhangaözen,43.3,52.8,47.84,67,6,18.07,KZ,1613148996
Port Hardy,50.6996,-127.4199,32.0,50,40,26.46,CA,1613148997
Canguçu,-31.395,-52.6756,75.0,88,75,5.75,BR,1613148997
Mossamedes,-15.1961,12.1522,76.71,69,78,11.79,AO,1613148852
Thayetmyo,19.3167,95.1833,68.27,42,63,1.14,MM,1613148997
Asahi,35.7167,140.65,39.2,81,40,3.44,JP,1613148997
Constantine,36.365,6.6147,64.4,55,40,9.22,DZ,1613148998
Rio Grande,-32.035,-52.0986,75.0,88,75,5.75,BR,1613148998
Nome,64.5011,-165.4064,28.4,74,90,27.63,US,1613148911
Cockburn Town,21.4612,-71.1419,77.36,79,3,21.45,TC,1613148998
La Reforma,25.0833,-108.05,73.0,55,0,1.01,MX,1613148998
Kirkuk,35.4681,44.3922,58.64,46,0,4.59,IQ,1613148998
Khatanga,71.9667,102.5,-27.58,85,91,7.56,RU,1613148999
Lichuan,30.3,108.85,43.9,91,1,2.37,CN,1613148999
Domingo Arenas,19.15,-98.4333,57.2,44,20,5.75,MX,1613148999
Fortuna,40.5982,-124.1573,48.99,100,90,5.75,US,1613148999
Sunbury,-37.5833,144.7333,57.99,76,75,5.75,AU,1613148999
Fenoarivo,-18.933,47.4354,69.8,83,75,12.66,MG,1613149000
Aklavik,68.2191,-135.0107,-16.6,76,20,5.75,CA,1613149000
Iqaluit,63.7506,-68.5145,-4.0,71,40,7.05,CA,1613149000
Hay River,60.8156,-115.7999,-22.0,69,85,1.14,CA,1613149000
Cidreira,-30.1811,-50.2056,77.9,75,100,14.74,BR,1613149000
Wajir,1.7471,40.0573,96.8,28,0,9.89,KE,1613149000
Daokou,35.5639,114.5058,49.32,73,0,3.98,CN,1613149000
Santa Vitória do Palmar,-33.5189,-53.3681,71.85,87,100,8.99,BR,1613149001
Muisne,0.6,-80.0333,86.0,84,40,4.61,EC,1613149001
Broken Hill,-31.95,141.4333,66.2,48,81,12.66,AU,1613149001
La Huacana,18.9667,-101.8167,60.8,72,1,5.1,MX,1613149001
Salinópolis,-0.6136,-47.3561,80.83,86,100,11.21,BR,1613149001
Guerrero Negro,27.9769,-114.0611,59.63,78,78,18.77,MX,1613149001
Otjiwarongo,-20.4637,16.6477,65.75,89,100,14.83,NA,1613149002
Bodmin,50.4715,-4.7243,37.4,65,0,33.38,GB,1613149002
Hithadhoo,-0.6,73.0833,82.4,75,100,9.44,MV,1613149002
Dryden,49.7833,-92.7503,-20.2,76,1,2.01,CA,1613149002
Portland,45.5234,-122.6762,27.0,88,100,1.99,US,1613148261
Rakitovo,41.9833,24.0833,32.0,43,1,23.02,BG,1613149003
Mayor Pablo Lagerenza,-19.9309,-60.7718,83.68,54,57,8.9,PY,1613149003
Ihosy,-22.4,46.1167,69.08,89,93,8.88,MG,1613149003
La Ronge,55.1001,-105.2842,-22.0,76,97,4.61,CA,1613149003
Hvolsvollur,63.7533,-20.2243,41.0,75,75,48.34,IS,1613149003
Pointe-Noire,-4.7761,11.8635,81.57,79,100,8.59,CG,1613149004
Batagay-Alyta,67.8006,130.4114,-8.46,81,39,2.53,RU,1613149004
Midyat,37.4247,41.3393,50.0,71,75,5.75,TR,1613148920
Lábrea,-7.2586,-64.7981,82.76,81,95,4.29,BR,1613149004
Laas,46.6166,10.7002,35.6,50,0,0.56,IT,1613149004
Farafangana,-22.8167,47.8333,76.66,87,100,9.42,MG,1613149004
Paramonga,-10.6667,-77.8333,78.76,57,34,10.74,PE,1613149005
Snåase,64.2457,12.3778,32.0,64,40,11.5,NO,1613149005
College,64.8569,-147.8028,-6.0,77,20,4.61,US,1613149005
Catuday,16.2923,119.8062,73.9,78,56,11.39,PH,1613149005
Domna,51.8971,113.1573,-0.4,55,34,20.13,RU,1613149005
Harindānga,22.0383,88.3214,71.6,53,20,4.27,IN,1613149005
Khani,41.9563,42.9566,53.6,47,0,5.75,GE,1613149006
Bengkulu,-3.8004,102.2655,77.92,83,100,4.23,ID,1613149006
Gijón,43.5357,-5.6615,60.01,87,73,2.95,ES,1613148757
Malanje,-9.5402,16.341,71.2,82,0,5.48,AO,1613149006
Vyartsilya,62.1764,30.693,1.69,93,0,2.98,RU,1613149006
Fengcheng,40.4536,124.0717,35.11,88,75,1.19,CN,1613149006
Lata,40.1629,-8.3327,63.0,77,20,6.91,PT,1613149007
Christchurch,-43.5333,172.6333,57.0,93,40,8.05,NZ,1613149007
Ca Mau,9.1769,105.15,72.72,90,15,6.15,VN,1613149007
Padang,-0.9492,100.3543,77.0,88,20,2.3,ID,1613148842
Craig,40.5153,-107.5464,35.6,100,90,7.29,US,1613148916
Gumdag,39.2061,54.5906,55.47,55,0,16.28,TM,1613149007
Dingle,10.9995,122.6711,75.52,88,46,3.0,PH,1613149008
Labuhan,-6.8844,112.2051,77.36,87,100,7.52,ID,1613149008
Mwense,-10.3845,28.698,68.18,91,94,3.78,ZM,1613149008
Oyotún,-6.8519,-79.3036,84.2,54,0,5.75,PE,1613149008
Mahanoro,-19.9,48.8,77.92,83,100,3.38,MG,1613149008
Deputatsky,69.3,139.9,-13.76,90,100,2.64,RU,1613149008
North Bend,43.4065,-124.2243,50.0,93,90,8.05,US,1613149009
Carlyle,38.6103,-89.3726,16.0,77,99,4.0,US,1613149009
Magadan,59.5667,150.8,6.58,85,92,4.56,RU,1613148986
Saldanha,-33.0117,17.9442,68.74,86,0,18.75,ZA,1613149009
Safaga,26.7292,33.9365,73.4,33,0,14.97,EG,1613148964
Turki,51.987,43.2731,36.14,99,100,13.35,RU,1613149009
Trairi,-3.2778,-39.2689,84.33,72,61,14.0,BR,1613149010
Kawalu,-7.3817,108.2082,73.18,92,100,1.52,ID,1613149010
Hofn,64.2539,-15.2082,37.4,75,75,14.97,IS,1613148765
Kloulklubed,7.0419,134.2556,75.2,94,75,4.61,PW,1613149011
Zelenoborskiy,66.845,32.3622,6.8,95,100,2.42,RU,1613149011
Ongandjera,-17.8833,15.0667,76.71,62,97,14.12,NA,1613149011
Narsaq,60.9167,-46.05,44.6,29,75,27.63,GL,1613149011
Avera,33.194,-82.5271,44.6,89,90,10.36,US,1613149011
San Francisco,37.7749,-122.4194,53.6,76,20,9.22,US,1613148526
Malinovskiy,61.1953,62.8397,-13.59,89,100,3.96,RU,1613149012
Canutama,-6.5339,-64.3831,93.33,49,79,2.51,BR,1613149012
Nyrob,60.733,56.7202,0.21,93,100,2.44,RU,1613149012
Palu,-0.8917,119.8707,76.8,80,100,1.88,ID,1613149012
Bredasdorp,-34.5322,20.0403,73.99,76,58,1.99,ZA,1613149012
Cherdyn',60.403,56.4787,0.36,94,100,2.55,RU,1613149013
Cuamba,-14.8031,36.5372,73.11,89,76,0.81,MZ,1613149013
Faanui,-16.4833,-151.75,81.52,70,30,10.47,PF,1613149013
Korla,41.7597,86.1469,34.27,79,0,5.08,CN,1613149013
Riyadh,24.6877,46.7219,75.2,22,0,4.61,SA,1613149013
San Quintín,30.4833,-115.95,59.49,73,93,17.54,MX,1613149013
Sakakah,29.9697,40.2064,71.6,28,0,6.91,SA,1613149014
Porto-Novo,6.4965,2.6036,87.8,74,20,12.66,BJ,1613149014
Impfondo,1.6381,18.0667,89.13,34,43,2.89,CG,1613149014
São João da Barra,-21.6403,-41.0511,86.0,51,0,16.11,BR,1613148839
Kailua,21.4022,-157.7394,73.4,56,75,10.36,US,1613148817
Sinegor'ye,62.0788,150.477,-3.32,88,100,0.78,RU,1613149015
Te Anau,-45.4167,167.7167,45.32,84,99,1.88,NZ,1613148827
Saulkrasti,57.2622,24.4147,14.0,85,0,5.75,LV,1613149015
Zhuanghe,39.7008,122.9911,41.0,78,86,7.9,CN,1613149015
Port Lincoln,-34.7333,135.8667,60.08,84,0,7.99,AU,1613148770
Orimattila,60.8049,25.7296,14.0,94,94,3.36,FI,1613149016
Flinders,-34.5833,150.8552,73.0,94,100,1.01,AU,1613149016
Daura,11.5538,11.4085,84.06,14,35,7.0,NG,1613149016
Luganville,-15.5333,167.1667,76.68,77,100,5.64,VU,1613149016
Bariloche,-41.1456,-71.3082,88.0,25,20,5.88,AR,1613149016
Byron Bay,-28.65,153.6167,73.4,73,92,12.66,AU,1613148768
Turbat,26.0023,63.044,61.84,50,0,1.92,PK,1613149017
Bembèrèkè,10.2283,2.6634,96.21,9,67,3.51,BJ,1613149017
Buraidah,26.326,43.975,69.8,52,20,2.3,SA,1613149017
Alice Springs,-23.7,133.8833,69.8,100,90,12.66,AU,1613149017
Ust'-Uda,54.1742,103.0304,-19.03,85,10,0.65,RU,1613149018
Krasnosel'kup,65.7,82.4667,-33.05,82,0,4.52,RU,1613149018
Lago da Pedra,-4.3333,-45.1667,84.87,78,66,3.44,BR,1613149018
Ewo,-0.8725,14.8206,87.82,51,53,2.75,CG,1613149018
Hasaki,35.7333,140.8333,39.2,81,40,3.44,JP,1613149018
Tacuatí,-23.45,-56.5833,87.8,42,39,3.36,PY,1613149018
Bitonto,41.1108,16.6894,45.0,65,40,5.75,IT,1613149019
Valparaíso,-33.0393,-71.6273,66.0,88,90,6.91,CL,1613149019
Provincia di Savona,44.3,8.2667,45.0,99,100,11.83,IT,1613149019
Lagoa,39.05,-27.9833,58.69,72,21,22.59,PT,1613149019
Thinadhoo,0.5333,72.9333,82.54,67,100,7.81,MV,1613149019
Heraclea,37.5133,34.0467,48.34,52,22,6.38,TR,1613149019
Saint-Augustin,51.226,-58.6502,27.48,93,83,15.57,CA,1613149020
Kahului,20.8947,-156.47,68.0,68,1,4.61,US,1613149020
Bahía Blanca,-38.7196,-62.2724,85.69,37,65,10.63,AR,1613149020
Wanning,18.8003,110.3967,63.72,79,51,4.9,CN,1613149020
Novo Aripuanã,-5.1206,-60.3797,88.14,65,80,2.68,BR,1613149020
High Level,58.5169,-117.136,-16.6,76,75,1.16,CA,1613148828
Paamiut,61.994,-49.6678,26.26,91,58,14.65,GL,1613149021
Mugur-Aksy,50.35,90.5,-8.61,74,76,4.65,RU,1613149021
Walvis Bay,-22.9575,14.5053,71.6,73,75,12.66,NA,1613149021
Alangānallūr,10.0667,78.05,75.2,60,100,5.75,IN,1613149021
Yumen,40.2833,97.2,34.16,75,0,6.73,CN,1613148891
Samarai,-10.6167,150.6667,81.68,73,40,7.67,PG,1613149022
Itaueira,-7.6033,-43.0256,88.75,55,62,7.25,BR,1613149022
Thamaga,-24.6701,25.5397,84.2,37,20,5.75,BW,1613149022
Marawi,7.9986,124.2928,75.99,90,80,5.01,PH,1613149022
Ridgecrest,35.6225,-117.6709,54.0,54,75,20.71,US,1613149022
Yangi Marg`ilon,40.4272,71.7189,51.8,43,100,6.91,UZ,1613149023
Imbituba,-28.24,-48.6703,75.2,88,75,8.05,BR,1613149023
Porbandar,21.6422,69.6093,69.13,63,0,7.23,IN,1613149023
Carahue,-38.7,-73.1667,73.4,60,0,5.75,CL,1613149023
Zyryanka,65.75,150.85,-24.63,86,100,3.38,RU,1613149023
San Policarpo,12.1791,125.5072,77.23,86,1,4.21,PH,1613149023
Umluj,25.0213,37.2685,76.73,65,0,7.16,SA,1613149024
Mil'kovo,54.7167,158.6167,-3.05,88,53,1.59,RU,1613149024
Gizo Government Station,-8.103,156.8419,81.88,78,96,11.21,SB,1613149024
Ambovombe,-25.1667,46.0833,76.6,80,100,17.47,MG,1613149024
Prince Rupert,54.3161,-130.3201,28.4,30,1,11.5,CA,1613148848
Tutóia,-2.7619,-42.2744,87.8,66,40,18.41,BR,1613149025
Chapada dos Guimarães,-15.4606,-55.7497,80.6,69,75,2.3,BR,1613149025
Mogwase,-25.185,27.2665,77.04,49,3,5.66,ZA,1613149025
Kewanee,41.2456,-89.9248,6.01,72,98,3.0,US,1613149025
Nantucket,41.2835,-70.0995,23.0,68,1,21.85,US,1613149025
Kochevo,59.5994,54.3125,1.29,94,100,4.25,RU,1613149025
Santarém,-2.4431,-54.7083,86.0,70,40,13.8,BR,1613149026
Alzamay,55.5562,98.6644,-10.61,87,79,3.02,RU,1613149026
Champasak,14.75,106.0,64.87,57,0,0.89,LA,1613149026
Tadine,-21.55,167.8833,75.42,78,21,2.28,NC,1613149026
Burnie,-41.0667,145.9167,55.0,85,29,7.87,AU,1613149026
Henties Bay,-22.116,14.2845,71.01,85,43,5.01,NA,1613149026
Nicoya,10.1483,-85.452,87.8,45,0,6.91,CR,1613149027
Krasnogvardeyets,52.6804,52.3635,34.09,96,100,8.32,RU,1613149027
Hamīrpur,25.95,80.15,63.27,44,57,5.57,IN,1613149027
Gravdal,68.1214,13.5031,33.8,69,75,14.97,NO,1613149028
Talaya,61.3833,152.75,-16.01,86,98,0.96,RU,1613149028
Lufilufi,-13.8745,-171.5986,82.74,70,98,7.76,WS,1613149028
Usinsk,65.9939,57.5281,-17.52,88,97,3.69,RU,1613149028
Mackay,-21.15,149.2,69.8,88,100,4.61,AU,1613149028
Dauriya,49.9333,116.8667,-4.27,87,48,12.86,RU,1613149028
Belgrade,44.804,20.4651,25.0,63,0,9.22,RS,1613148953
Gazojak,41.1875,61.4036,44.4,63,65,8.68,TM,1613149029
Callaway,30.153,-85.5699,70.0,83,75,9.22,US,1613149029
Birin,26.8865,88.0718,50.31,75,6,3.62,NP,1613149029
Husavik,66.0449,-17.3389,24.8,74,0,5.75,IS,1613149029
Riachão das Neves,-11.7461,-44.91,85.78,60,22,4.54,BR,1613149029
Beringovskiy,63.05,179.3167,-16.98,87,100,27.07,RU,1613149030
Adrar,20.5022,-10.0711,85.32,10,0,11.36,MR,1613149030
Estación Coahuila,32.1939,-115.0017,68.0,48,1,5.75,MX,1613149030
Kasongo-Lunda,-6.4667,16.8167,80.13,70,72,3.69,CD,1613149030
Rome,43.2128,-75.4557,12.99,51,90,2.1,US,1613148824
Ransang,8.9603,117.5828,78.87,83,90,9.78,PH,1613149030
Yarqā,31.9785,35.6947,59.0,76,34,4.61,JO,1613149031
Bud,39.447,-86.1758,24.01,68,90,4.61,US,1613149031
Yanaul,56.2719,54.9309,11.34,96,63,5.75,RU,1613149031
Krasnoarmeysk,51.0239,45.6969,34.0,90,100,3.0,RU,1613149031
Margate,51.3813,1.3862,30.99,53,4,4.0,GB,1613149031
Necochea,-38.5473,-58.7368,78.01,69,91,7.0,AR,1613149031
Grand Gaube,-20.0064,57.6608,75.99,78,0,3.0,MU,1613149032
Boguchany,58.3814,97.4531,-7.78,89,100,3.85,RU,1613149032
Sulphur Springs,33.1385,-95.6011,26.6,93,90,8.05,US,1613149032
Igrim,63.1906,64.4162,-20.92,87,96,3.02,RU,1613149032
Dodola,6.9833,39.1833,60.42,62,86,2.24,ET,1613149032
Kruisfontein,-34.0033,24.7314,79.0,74,100,3.0,ZA,1613149032
Sanchazi,42.0817,126.6003,24.64,95,50,1.74,CN,1613149033
Kenai,60.5544,-151.2583,28.4,74,1,13.8,US,1613149033
Al Bardīyah,31.7561,25.0865,59.07,75,0,9.84,LY,1613149033
Luanda,-8.8368,13.2343,84.2,65,20,12.66,AO,1613149033
Beyneu,45.3167,55.2,41.94,67,0,18.57,KZ,1613149033
Atar,20.5169,-13.0499,87.35,10,0,14.99,MR,1613149034
Salalah,17.0151,54.0924,77.0,53,0,4.61,OM,1613149034
Darovskoy,58.77,47.9564,3.43,94,100,5.3,RU,1613149034
Taltal,-25.4,-70.4833,72.41,60,7,7.87,CL,1613149034
Amarante do Maranhão,-5.5667,-46.7422,83.35,82,92,5.66,BR,1613149034
Penzance,50.1186,-5.5371,41.0,65,20,35.68,GB,1613149035
Port Hedland,-20.3167,118.5667,78.8,83,8,5.75,AU,1613149035
Revadanda,18.5503,72.9278,78.8,65,0,4.61,IN,1613149035
Winschoten,53.1442,7.0347,26.01,74,1,4.0,NL,1613148993
Saint-Pierre,-21.3393,55.4781,80.6,74,20,25.32,RE,1613149035
Kula,38.5473,28.6498,41.16,75,2,4.94,TR,1613148912
Calama,-22.4667,-68.9333,69.8,23,0,10.36,CL,1613149036
Noumea,-22.2763,166.4572,78.01,100,2,2.3,NC,1613149036
Puro,12.4841,123.3827,78.53,86,41,11.01,PH,1613149036
Saurimo,-9.6608,20.3916,71.55,84,57,4.21,AO,1613148852
Seryshevo,51.0933,128.3786,8.17,92,10,10.38,RU,1613149036
Vanavara,60.34,102.2797,-14.15,89,100,4.41,RU,1613149037
Bilma,18.6853,12.9164,75.83,16,0,4.81,NE,1613149037
Serrinha,-11.6642,-39.0075,90.32,35,16,11.16,BR,1613149005
San Rafael del Sur,11.8485,-86.4384,86.0,54,40,13.8,NI,1613148980
Pangnirtung,66.1451,-65.7125,-4.0,84,75,2.3,CA,1613149037
Cap Malheureux,-19.9842,57.6142,75.99,78,0,3.0,MU,1613149037
Tucupita,9.0622,-62.051,79.95,82,31,5.93,VE,1613149038
The Valley,18.217,-63.0578,82.4,65,40,19.57,AI,1613149038
Ryōtsu-minato,38.0833,138.4333,42.84,70,48,4.12,JP,1613149038
Havelock,34.8791,-76.9013,45.0,93,90,13.8,US,1613149038
Coyhaique,-45.5752,-72.0662,66.2,34,0,5.75,CL,1613148907
Goundam,16.4145,-3.6708,97.83,8,0,6.78,ML,1613149038
Ulaanbaatar,47.9077,106.8832,-14.8,76,0,8.95,MN,1613149039
Nishihara,26.1842,127.7558,66.2,77,20,10.36,JP,1613149039
Mitú,1.1983,-70.1733,84.22,64,100,2.37,CO,1613148803
Sur,22.5667,59.5289,68.86,65,0,6.6,OM,1613149039
Sampit,-2.5333,112.95,74.91,95,70,2.66,ID,1613149039
Kulhudhuffushi,6.6221,73.07,80.92,65,77,7.4,MV,1613149040
Glenwood Springs,39.5505,-107.3248,37.99,93,90,9.22,US,1613148747
Kavieng,-2.5744,150.7967,82.06,78,94,9.78,PG,1613149040
Saint-François,46.4154,3.9054,30.0,80,90,9.22,FR,1613149040
Winslow,35.0242,-110.6974,55.99,40,20,11.03,US,1613149040
Kudahuvadhoo,2.6708,72.8944,81.21,68,87,10.04,MV,1613149040
Vágur,61.4732,-6.8119,39.04,74,84,30.89,FO,1613149041
Constitución,-35.3333,-72.4167,69.46,67,23,7.27,CL,1613149041
Rocha,-34.4833,-54.3333,70.81,89,100,4.94,UY,1613149041
Pasni,25.2631,63.471,70.81,74,1,3.69,PK,1613149041
Omsukchan,62.5333,155.8,-17.66,85,34,4.21,RU,1613149041
Wanaka,-44.7,169.15,49.17,63,96,3.76,NZ,1613149041
Rabat,33.9911,-6.8401,64.4,77,75,9.22,MA,1613149042
Pohořelice,48.9812,16.5245,26.01,63,20,11.5,CZ,1613149042
Marzuq,14.4,46.4667,62.19,31,22,3.02,YE,1613149042
Taoudenni,22.6783,-3.9836,87.31,10,0,12.26,ML,1613149042
Puerto Ayacucho,5.6639,-67.6236,94.68,40,84,5.21,VE,1613149042
Burgeo,47.6167,-57.6152,33.71,89,100,14.58,CA,1613148853
Cartagena del Chairá,1.3349,-74.8429,92.28,36,38,6.22,CO,1613149043
Morondava,-20.2833,44.2833,80.76,76,100,20.09,MG,1613148924
Fraserburgh,57.6874,-2.0184,33.01,66,89,25.86,GB,1613149043
Kavaratti,10.5669,72.642,82.33,57,58,4.88,IN,1613149043
Berlevåg,70.8578,29.0864,10.4,79,0,12.66,NO,1613149043
Jijiga,9.35,42.8,64.04,38,78,12.88,ET,1613149044
Maumere,-8.6199,122.2111,80.29,79,94,3.44,ID,1613149044
Sarankhola,22.3082,89.7897,64.4,75,98,4.16,BD,1613149044
Goulburn,-34.75,149.7167,68.0,96,100,7.76,AU,1613149044
Port Moresby,-9.4431,147.1797,75.2,94,40,5.75,PG,1613148919
Farsund,58.0948,6.8047,32.0,57,0,5.57,NO,1613149044
Belle Fourche,44.6714,-103.8522,-2.99,59,75,5.48,US,1613149016
Kaeo,-35.1,173.7833,54.0,90,0,4.88,NZ,1613149045
Salinas,36.6777,-121.6555,54.0,87,90,7.92,US,1613149045
Mataram,-8.5833,116.1167,75.2,94,75,5.75,ID,1613149045
Katherine,-14.4667,132.2667,75.2,94,100,1.14,AU,1613149045
Suntar,62.1444,117.6319,-13.2,88,100,4.63,RU,1613149046
Kirovskiy,45.0917,133.5136,27.32,98,57,3.98,RU,1613149046
Veinticinco de Mayo,-35.4323,-60.1727,79.0,65,80,7.0,AR,1613149046
Zharkent,44.1628,80.0,37.8,78,99,2.82,KZ,1613149046
Gilbués,-9.8317,-45.3439,87.44,56,30,9.15,BR,1613149046
Zeya,53.75,127.2667,17.4,96,100,5.7,RU,1613149046
Ambilobe,-13.2,49.05,76.32,91,100,0.89,MG,1613148853
San Cristobal,7.7669,-72.225,86.0,48,20,6.91,VE,1613149047
Cherskiy,68.75,161.3,-27.44,77,0,1.68,RU,1613149047
Milford,41.2223,-73.0565,28.99,28,90,6.91,US,1613148920
Acapulco de Juárez,16.8634,-99.8901,80.6,65,20,2.3,MX,1613148769
Touros,-5.1989,-35.4608,87.8,58,40,18.41,BR,1613148791
San Miguel de Cozumel,20.5083,-86.9458,82.99,69,40,16.11,MX,1613149048
Sambava,-14.2667,50.1667,80.13,82,100,5.3,MG,1613149048
Havre-St-Pierre,50.2334,-63.5986,26.6,59,1,12.66,CA,1613149048
Chowchilla,37.123,-120.2602,50.0,87,40,6.91,US,1613149048
Les Trois-Îlets,14.539,-61.0361,82.4,61,20,20.71,MQ,1613149048
Sisophon,13.5859,102.9737,76.84,38,3,1.5,KH,1613149049
Biak,-0.9131,122.8766,77.49,81,100,3.42,ID,1613149049
Lukovetskiy,64.2956,41.9211,-22.0,76,20,0.83,RU,1613149049
Dinguiraye,11.3,-10.7167,99.32,8,0,5.68,GN,1613149049
Yugo-Kamskiy,57.7053,55.5894,5.0,72,75,8.95,RU,1613149049
Oruro,-17.9833,-67.15,59.02,35,97,4.38,BO,1613148780
Marrakesh,31.6315,-8.0083,73.4,33,20,8.05,MA,1613149019
Bekobod,40.2208,69.2697,44.6,65,57,6.71,UZ,1613149050
Huarmey,-10.0681,-78.1522,79.03,57,22,9.95,PE,1613149050
Half Moon Bay,37.4636,-122.4286,54.0,87,20,12.66,US,1613149047
Kangaatsiaq,68.3065,-53.4641,5.07,89,0,6.58,GL,1613149050
Kokopo,-4.352,152.2633,77.9,85,95,4.23,PG,1613149050
Marsh Harbour,26.5412,-77.0636,76.41,77,0,15.48,BS,1613149051
Itarema,-2.9248,-39.9167,86.54,63,51,16.89,BR,1613149051
Kadom,54.5592,42.4675,24.26,99,100,6.46,RU,1613149051
Philadelphia,39.9523,-75.1638,28.0,46,90,6.91,US,1613149006
Wasilla,61.5814,-149.4394,21.99,49,1,3.44,US,1613148820
Bangui,4.3612,18.555,88.43,14,0,0.94,CF,1613149051
Ulaangom,49.9811,92.0667,-5.98,88,100,2.62,MN,1613149052
Vengerovo,55.6848,76.7471,-23.62,86,25,4.9,RU,1613149052
Paracuru,-3.41,-39.0306,84.0,75,58,18.01,BR,1613149052
Srednekolymsk,67.45,153.6833,-28.77,81,0,5.59,RU,1613149052
Skibbereen,51.55,-9.2667,39.2,93,90,23.02,IE,1613149052
São Filipe,14.8961,-24.4956,75.16,61,0,13.44,CV,1613148849
Hachinohe,40.5,141.5,27.73,94,8,5.12,JP,1613149053
Bandarbeyla,9.4942,50.8122,74.62,71,59,14.99,SO,1613149053
Cardston,49.2,-113.3019,-11.2,76,96,1.14,CA,1613149053
Aswān,24.0934,32.907,73.56,18,0,14.47,EG,1613149053
Uspenka,48.3903,39.1619,44.51,84,89,18.57,UA,1613149054
Kovūr,14.4833,79.9833,69.75,70,48,5.91,IN,1613149054
Lodwar,3.1191,35.5973,90.23,32,87,9.13,KE,1613149054
Salamiyah,35.0113,37.0532,54.14,65,78,9.75,SY,1613149054
Naze,28.3667,129.4833,62.91,86,76,21.72,JP,1613149054
Rondonópolis,-16.4708,-54.6356,73.9,93,100,2.01,BR,1613148867
Melipilla,-33.7,-71.2167,79.0,82,90,5.75,CL,1613148986
Nuuk,64.1835,-51.7216,19.4,79,75,11.5,GL,1613149055
Porto Velho,-8.7619,-63.9039,84.2,74,75,2.3,BR,1613148833
Bay Roberts,47.5999,-53.2648,34.0,86,90,23.02,CA,1613149055
Caravelas,-17.7125,-39.2481,84.45,58,0,9.35,BR,1613149056
San Angelo,31.4638,-100.437,24.8,86,90,12.66,US,1613149051
Paciran,-6.8767,112.3761,77.49,88,97,8.7,ID,1613149056
Acaraú,-2.8856,-40.12,86.23,65,47,17.98,BR,1613149013
Bagojo Colectivo,25.8667,-109.1167,69.01,77,1,4.61,MX,1613149056
Guangming,45.3333,122.7833,20.73,77,64,5.59,CN,1613149057
Lensk,60.7253,114.9278,-10.95,86,100,2.86,RU,1613149057
Barra de Tecoanapa,16.5167,-98.75,85.41,49,0,3.91,MX,1613149057
Tocopilla,-22.092,-70.1979,75.4,52,3,5.97,CL,1613149057
Ciudad Bolivar,8.1222,-63.5497,93.61,35,37,10.49,VE,1613149057
Toora-Khem,52.4675,96.11,-17.1,85,51,1.19,RU,1613149057
Hadejia,12.4498,10.0444,86.5,12,0,8.7,NG,1613149058
Novikovo,51.1537,37.8879,37.29,95,100,10.67,RU,1613149058
Río Gallegos,-51.6226,-69.2181,68.0,40,75,24.16,AR,1613149058
Shillong,25.5689,91.8831,62.6,72,40,0.69,IN,1613149058
Bam,29.106,58.357,60.01,28,0,4.36,IR,1613149058
Kyren,51.6828,102.1408,-8.07,80,59,1.52,RU,1613149059
Martapura,-3.4167,114.85,75.2,100,90,1.14,ID,1613149059
Yangambi,0.8102,24.4336,83.84,39,44,1.07,CD,1613149059
Chengam,12.3,78.8,66.02,81,89,3.31,IN,1613149059
Okhotsk,59.3833,143.3,14.56,90,100,2.91,RU,1613148579
Kuytun,54.3419,101.5036,-17.86,87,35,3.71,RU,1613149060
Dali,25.7,100.1833,45.64,64,0,4.5,CN,1613149060
