City,Lat,Lng,Max Temp,Humidity,Cloudiness,Wind Speed,Country,Date
Cidreira,-30.1811,-50.2056,76.62,81,100,5.88,BR,1613334721
Hermanus,-34.4187,19.2345,63.0,93,80,1.01,ZA,1613334722
Puerto Ayora,-0.7393,-90.3518,81.0,74,90,9.22,EC,1613334669
Geraldton,-28.7667,114.6,69.8,83,14,4.43,AU,1613334653
Rikitea,-23.1203,-134.9692,80.13,76,52,16.11,PF,1613334722
Mayo,38.8876,-76.5119,35.01,93,90,3.44,US,1613334722
Kaitangata,-46.2817,169.8464,56.05,89,94,1.5,NZ,1613334723
Jamestown,42.097,-79.2353,24.01,63,1,6.91,US,1613334455
Severo-Kuril'sk,50.6789,156.125,23.95,92,76,10.16,RU,1613334723
Barrow,71.2906,-156.7887,-14.8,84,1,3.44,US,1613334723
Oranjemund,-28.55,16.4333,65.01,82,21,12.26,NA,1613334724
Aklavik,68.2191,-135.0107,-0.4,78,90,9.22,CA,1613334724
Bataiporã,-22.2953,-53.2711,77.54,83,100,2.86,BR,1613334724
Ushuaia,-54.8,-68.3,55.4,41,75,5.75,AR,1613334652
Tasiilaq,65.6145,-37.6368,32.0,86,90,3.44,GL,1613334724
Busselton,-33.65,115.3333,68.0,92,11,7.11,AU,1613334725
Tuktoyaktuk,69.4541,-133.0374,-4.0,84,90,10.36,CA,1613334725
Bredasdorp,-34.5322,20.0403,64.4,77,22,18.41,ZA,1613334725
Aasiaat,68.7098,-52.8699,-5.71,90,22,7.49,GL,1613334725
Vaini,-21.2,-175.2,82.4,83,40,5.75,TO,1613334725
San Patricio,28.017,-97.5169,35.6,93,90,16.11,US,1613334726
São Domingos,-13.3983,-46.3183,75.94,83,100,3.69,BR,1613334726
Rosita,13.9268,-84.4032,90.36,41,65,4.36,NI,1613334726
Panguna,-6.3164,155.4848,72.25,96,100,1.97,PG,1613334726
Mar del Plata,-38.0023,-57.5575,72.0,94,75,6.91,AR,1613334461
Esperance,-33.8667,121.9,60.8,77,0,12.66,AU,1613334726
Tiksi,71.6872,128.8694,-19.64,88,100,6.6,RU,1613334727
Okhotsk,59.3833,143.3,5.38,93,100,1.83,RU,1613334727
Punta Arenas,-53.15,-70.9167,51.8,58,75,27.63,CL,1613334727
Nexø,55.0607,15.1306,30.2,80,0,8.05,DK,1613334727
Ponta do Sol,32.6667,-17.1,55.99,70,2,3.0,PT,1613334728
Butaritari,3.0707,172.7902,80.33,79,76,20.2,KI,1613334728
Canberra,-35.2835,149.1281,57.2,67,0,12.66,AU,1613334604
Codrington,-38.2667,141.9667,59.59,76,97,8.59,AU,1613334728
Souillac,-20.5167,57.5167,77.0,88,40,3.44,MU,1613334729
Tautira,-17.7333,-149.15,86.0,66,20,13.8,PF,1613334729
Mataura,-46.1927,168.8643,57.0,86,99,11.01,NZ,1613334729
Nanortalik,60.1432,-45.2371,24.26,94,60,9.31,GL,1613334729
Albany,42.6001,-73.9662,30.99,58,97,1.01,US,1613334692
Kharan,28.5833,65.4167,60.4,26,0,4.92,PK,1613334730
Kapaa,22.0752,-159.319,77.0,78,75,6.91,US,1613334593
Sānchor,24.7553,71.7722,57.42,48,40,4.88,IN,1613334730
Salalah,17.0151,54.0924,71.6,64,0,4.61,OM,1613334730
Petropavlovsk-Kamchatskiy,53.0452,158.6483,10.4,67,75,6.71,RU,1613334731
Dakar,14.6937,-17.4441,68.0,73,93,6.91,SN,1613334586
Atuona,-9.8,-139.0333,78.89,73,1,12.15,PF,1613334731
Thompson,55.7435,-97.8558,-4.0,71,90,11.5,CA,1613334731
Makar'yev,57.8797,43.8069,0.18,93,87,6.17,RU,1613334731
Saskylakh,71.9167,114.0833,-20.85,86,100,12.01,RU,1613334732
General Roca,-39.0333,-67.5833,84.2,24,0,11.5,AR,1613334732
Yellowknife,62.456,-114.3525,-4.0,84,1,16.11,CA,1613334732
Qaanaaq,77.484,-69.3632,7.93,91,100,1.12,GL,1613334732
Cape Town,-33.9258,18.4232,68.0,82,75,4.61,ZA,1613334450
Los Llanos de Aridane,28.6585,-17.9182,62.6,82,0,6.91,ES,1613334733
Chokurdakh,70.6333,147.9167,-8.27,88,100,13.22,RU,1613334733
Lodja,-3.4833,23.4333,74.35,78,96,2.53,CD,1613334733
Constitución,-35.3333,-72.4167,64.96,65,2,9.82,CL,1613334656
Mehamn,71.0357,27.8492,26.6,86,75,14.97,NO,1613334734
Bengkulu,-3.8004,102.2655,76.08,88,64,4.54,ID,1613334734
Atherton,53.5237,-2.4935,44.01,81,100,5.99,GB,1613334667
Lebu,-37.6167,-73.65,61.99,70,0,17.36,CL,1613334734
Chapais,49.7834,-74.8492,10.4,67,75,2.3,CA,1613334734
Port Hedland,-20.3167,118.5667,78.8,89,90,8.05,AU,1613334735
Hilo,19.7297,-155.09,75.2,73,90,3.44,US,1613334562
Sinnamary,5.3833,-52.95,78.73,78,76,13.24,GF,1613334735
Bluff,-46.6,168.3333,57.0,86,29,11.01,NZ,1613334735
Saint George,37.1041,-113.5841,50.0,32,1,4.61,US,1613334643
Hobart,-42.8794,147.3294,57.99,88,75,3.44,AU,1613334491
Rio Branco,-9.9747,-67.81,73.4,100,75,17.27,BR,1613334736
Takoradze,4.8845,-1.7554,80.08,87,1,8.68,GH,1613334736
Abu Samrah,35.3029,37.1841,55.09,53,0,6.33,SY,1613334736
Jaraguá,-15.7569,-49.3344,77.0,69,75,3.44,BR,1613334736
Saint-Philippe,-21.3585,55.7679,78.8,73,20,3.44,RE,1613334737
Acajutla,13.5928,-89.8275,87.8,42,40,6.91,SV,1613334737
Benalla,-36.55,145.9833,55.4,94,0,3.44,AU,1613334737
São Filipe,14.8961,-24.4956,71.37,74,34,9.33,CV,1613334737
Mayor Pablo Lagerenza,-19.9309,-60.7718,85.37,60,96,3.83,PY,1613334737
Castro,-24.7911,-50.0119,75.25,73,16,6.6,BR,1613334489
West Wendover,40.7391,-114.0733,39.2,41,90,6.91,US,1613334738
Vostok,46.4856,135.8833,5.94,95,96,1.23,RU,1613334738
Tynset,62.2759,10.7824,-11.2,77,100,1.14,NO,1613334738
Narganá,9.4428,-78.5906,81.59,68,38,7.14,PA,1613334738
Vanavara,60.34,102.2797,-32.13,83,0,3.09,RU,1613334739
Okoneshnikovo,54.8377,75.0834,23.92,97,94,13.82,RU,1613334739
San Cristobal,7.7669,-72.225,93.2,38,40,4.61,VE,1613334552
Kiryat Gat,31.61,34.7642,59.0,100,0,1.43,IL,1613334739
Hasaki,35.7333,140.8333,53.6,94,75,4.61,JP,1613334739
Negara,-8.3151,114.6025,75.04,86,100,2.66,ID,1613334647
Phonhong,18.5007,102.4166,67.82,69,3,2.93,LA,1613334740
Neosho,36.869,-94.368,5.0,83,100,8.99,US,1613334740
New Norfolk,-42.7826,147.0587,57.99,70,100,2.26,AU,1613334740
Hong Kong,22.2855,114.1577,64.0,89,0,5.41,HK,1613334610
Faanui,-16.4833,-151.75,81.97,74,22,10.98,PF,1613334740
Banda Aceh,5.5577,95.3222,78.4,79,0,10.18,ID,1613334740
Williamsport,41.2412,-77.0011,34.0,55,90,6.91,US,1613334615
Esna,25.2934,32.554,64.4,48,0,11.27,EG,1613334741
Dikson,73.5069,80.5464,-18.85,88,100,14.61,RU,1613334741
Mahina,-17.5065,-149.489,86.0,66,20,13.8,PF,1613334741
Nhulunbuy,-12.2333,136.7667,78.8,94,100,5.75,AU,1613334741
Saint Paul Harbor,57.79,-152.4072,39.2,87,90,16.11,US,1613334742
Thayetmyo,19.3167,95.1833,61.12,57,12,1.9,MM,1613334742
Longyearbyen,78.2186,15.6401,15.8,73,75,8.05,SJ,1613334742
East London,-33.0153,27.9116,75.25,81,100,15.21,ZA,1613334742
Olot,42.181,2.4901,42.01,87,100,1.99,ES,1613334742
Kawalu,-7.3817,108.2082,71.51,90,62,2.68,ID,1613334743
Duekoué,6.7472,-7.3496,77.25,82,89,2.98,CI,1613334743
Meulaboh,4.1363,96.1285,76.75,88,10,4.5,ID,1613334743
Dzerzhinsk,56.2389,43.4631,0.0,84,40,6.71,RU,1613334743
Voyvozh,62.892,54.9635,-11.76,90,100,6.8,RU,1613334744
Nikolskoye,59.7035,30.7861,14.0,73,75,8.95,RU,1613334744
Krasnosel'kup,65.7,82.4667,-26.81,83,95,11.81,RU,1613334744
Iracoubo,5.4802,-53.2011,78.84,77,42,14.0,GF,1613334744
Vila Velha,-20.3297,-40.2925,88.0,65,20,18.41,BR,1613334744
Morehead,37.2711,-87.1764,19.4,79,90,6.91,US,1613334745
Kumul,42.8,93.45,30.15,83,0,6.2,CN,1613334745
Mahébourg,-20.4081,57.7,77.0,88,40,3.44,MU,1613334745
Dul'durga,50.6761,113.5931,-6.29,88,100,2.46,RU,1613334745
Sibi,29.5448,67.8764,66.79,25,0,2.8,PK,1613334745
Port Alfred,-33.5906,26.891,72.0,93,98,5.01,ZA,1613334746
Magadan,59.5667,150.8,-9.17,78,48,7.58,RU,1613334746
Santo Tomas,14.1079,121.1414,77.0,88,20,1.14,PH,1613334746
Pisco,-13.7,-76.2167,80.6,57,0,17.27,PE,1613334746
George Town,5.4112,100.3354,82.4,65,20,2.3,MY,1613334746
Wang Saphung,17.301,101.7685,73.0,67,3,1.39,TH,1613334747
Dubuque,42.4833,-90.8668,-0.99,54,90,13.8,US,1613334747
Nālūt,30.3333,10.85,48.58,67,21,23.04,LY,1613334747
Samarai,-10.6167,150.6667,81.16,74,39,1.45,PG,1613334747
Puerto Peñasco,31.3167,-113.5333,64.99,25,21,10.0,MX,1613334623
Gouré,13.9835,10.2704,79.0,14,0,1.99,NE,1613334747
Pevek,69.7008,170.3133,-19.71,87,45,1.25,RU,1613334748
Lompoc,34.6391,-120.4579,60.8,48,1,13.8,US,1613334748
Kununurra,-15.7667,128.7333,78.8,100,90,3.44,AU,1613334748
Kyshtovka,56.555,76.6271,26.73,97,95,15.46,RU,1613334748
Isla Vista,34.4133,-119.861,68.0,48,1,17.27,US,1613334748
Roald,62.5833,6.1333,35.6,35,0,16.11,NO,1613334748
Port Elizabeth,-33.918,25.5701,69.8,94,90,10.36,ZA,1613334749
Hopelchén,19.7667,-89.85,84.2,61,40,11.5,MX,1613334749
Kapuskasing,49.4169,-82.4331,6.8,51,100,3.44,CA,1613334749
Mēga,4.05,38.3,64.94,46,1,14.36,ET,1613334749
Lagan,45.3929,47.3707,33.22,86,91,1.68,RU,1613334750
Burriana,39.889,-0.085,53.01,91,100,3.0,ES,1613334750
Nome,64.5011,-165.4064,12.2,52,1,5.75,US,1613334750
Yerbogachën,61.2767,108.0108,-35.82,82,0,2.64,RU,1613334750
College,64.8569,-147.8028,7.0,76,20,0.2,US,1613334751
Chabahar,25.2919,60.643,70.12,68,0,9.46,IR,1613334751
Mahajanga,-15.7167,46.3167,78.8,89,40,3.44,MG,1613334751
Airai,-8.9266,125.4092,59.25,100,29,1.7,TL,1613334751
Guerrero Negro,27.9769,-114.0611,63.07,59,82,20.18,MX,1613334751
Bathsheba,13.2167,-59.5167,82.4,61,40,23.02,BB,1613334751
Mandalgovi,45.7625,106.2708,13.55,78,4,22.17,MN,1613334752
Polewali,-3.4324,119.3435,75.63,79,100,4.12,ID,1613334752
Churapcha,62.0025,132.4325,-16.89,88,100,3.29,RU,1613334752
Umm Kaddadah,13.6017,26.6876,73.29,20,0,13.33,SD,1613334752
Marawi,7.9986,124.2928,73.99,95,4,1.99,PH,1613334752
Provideniya,64.3833,-173.3,14.0,79,40,13.42,RU,1613334753
Niles,42.0189,-87.8028,5.0,47,90,11.5,US,1613334753
Yulara,-25.2406,130.9889,77.0,38,40,8.05,AU,1613334753
Biltine,14.5333,20.9167,75.9,18,0,6.35,TD,1613334753
Longonjo,-12.9067,15.2533,61.79,60,34,3.42,AO,1613334753
Doha,25.2867,51.5333,69.8,49,0,4.61,QA,1613334630
Zhangjiakou Shi Xuanhua Qu,40.6103,115.0447,20.48,66,0,15.46,CN,1613334754
Fortuna,40.5982,-124.1573,48.0,93,90,24.16,US,1613334754
Neustrelitz,53.3667,13.0833,20.86,95,7,4.65,DE,1613334754
Tagusao,9.1924,117.8141,76.77,77,100,6.06,PH,1613334754
Verkhnyaya Inta,65.9811,60.3094,-8.18,89,100,18.07,RU,1613334754
Eureka,40.8021,-124.1637,50.0,86,100,5.01,US,1613334755
Te Anau,-45.4167,167.7167,57.65,84,82,0.67,NZ,1613334755
Port Blair,11.6667,92.75,78.3,78,96,4.83,IN,1613334755
Narsaq,60.9167,-46.05,32.0,74,75,1.7,GL,1613334755
Dolisie,-4.1997,12.6739,73.51,96,100,4.03,CG,1613334755
Khudumelapye,-23.8833,24.75,75.47,53,7,4.61,BW,1613334755
Kurumkan,54.3,110.3,-10.75,81,100,2.77,RU,1613334756
Touros,-5.1989,-35.4608,84.2,65,0,18.41,BR,1613334756
Kansanshi,-12.0951,26.4273,62.42,93,100,2.44,ZM,1613334756
Praia,14.9215,-23.5087,69.8,73,20,20.71,CV,1613334756
Cherskiy,68.75,161.3,-6.88,90,98,1.39,RU,1613334756
Dubai,25.2582,55.3047,69.8,78,0,3.44,AE,1613334508
Tuatapere,-46.1333,167.6833,57.0,86,97,11.01,NZ,1613334757
Vrangel',42.7297,133.0839,31.93,99,100,8.55,RU,1613334757
Fort Nelson,58.8053,-122.7002,-7.6,64,20,3.44,CA,1613334608
Zhangye,38.9342,100.4517,26.6,86,83,3.44,CN,1613334757
Leningradskiy,69.3833,178.4167,-16.37,84,0,6.17,RU,1613334549
Ramos Arizpe,25.55,-100.9667,64.4,32,1,11.5,MX,1613334758
Ati,13.2154,18.3353,81.27,15,0,10.29,TD,1613334758
Khasan,42.4308,130.6434,25.77,98,100,11.25,RU,1613334758
Carnarvon,-24.8667,113.6333,75.2,100,40,7.74,AU,1613334758
Inuvik,68.3499,-133.7218,-5.8,77,98,4.61,CA,1613334759
Mitsamiouli,-11.3847,43.2844,82.51,81,70,13.29,KM,1613334759
Avarua,-21.2078,-159.775,84.2,79,20,4.61,CK,1613334488
Chui,-33.6971,-53.4616,75.06,85,95,6.29,UY,1613334759
Clyde River,70.4692,-68.5914,-11.2,84,93,2.24,CA,1613334759
Ojos de Agua,14.7,-88.8167,87.8,35,40,9.22,HN,1613334760
Upernavik,72.7868,-56.1549,-1.71,90,100,1.45,GL,1613334760
Pangnirtung,66.1451,-65.7125,-18.4,76,40,1.7,CA,1613334760
Inhambane,-23.865,35.3833,78.8,94,75,11.5,MZ,1613334760
San Juan,-31.5375,-68.5364,93.42,16,7,6.4,AR,1613334760
Quatre Cocos,-20.2078,57.7625,77.0,88,40,3.44,MU,1613334761
Namtsy,62.7161,129.6658,-14.8,84,100,4.54,RU,1613334761
Tabou,4.423,-7.3528,78.93,89,99,6.38,CI,1613334761
Portland,45.5234,-122.6762,33.01,86,90,12.66,US,1613334572
Lüderitz,-26.6481,15.1594,67.96,73,0,21.25,NA,1613334761
Tartagal,-22.5164,-63.8013,84.92,59,69,4.34,AR,1613334761
Raudeberg,61.9875,5.1352,39.2,45,90,27.63,NO,1613334762
Taunggyi,20.7833,97.0333,51.42,61,0,1.59,MM,1613334762
Iqaluit,63.7506,-68.5145,-7.6,71,90,2.3,CA,1613334560
Nieuw Nickerie,5.95,-56.9833,79.9,76,88,18.12,SR,1613334762
San Francisco,37.7749,-122.4194,55.4,62,90,14.97,US,1613334396
Llanes,43.4198,-4.7549,57.38,58,4,9.42,ES,1613334762
Chişlaz,47.2833,22.2333,28.4,80,20,4.61,RO,1613334763
Hawkesbury,45.6001,-74.616,21.0,63,20,9.22,CA,1613334763
Caravelas,-17.7125,-39.2481,77.79,76,100,8.61,BR,1613334763
Tual,-5.6667,132.75,82.8,80,100,15.35,ID,1613334763
Olafsvik,64.8945,-23.7142,41.13,80,51,16.49,IS,1613334763
Atar,20.5169,-13.0499,71.42,20,0,10.6,MR,1613334764
Port Lincoln,-34.7333,135.8667,61.18,89,11,13.02,AU,1613334764
Hithadhoo,-0.6,73.0833,82.09,76,99,8.52,MV,1613334764
Lata,40.1629,-8.3327,59.0,80,95,4.76,PT,1613334764
Boa Vista,2.8197,-60.6733,93.2,38,75,16.11,BR,1613334547
Fukuechō,32.6881,128.8419,58.89,78,25,25.57,JP,1613334666
Norman Wells,65.282,-126.8329,-23.8,76,75,5.75,CA,1613334765
Lucapa,-8.4192,20.7447,69.58,88,100,2.01,AO,1613334765
Kirakira,-10.4544,161.9205,82.2,77,62,4.36,SB,1613334765
Vila Franca do Campo,37.7167,-25.4333,60.01,72,75,19.57,PT,1613334765
Grindavik,63.8424,-22.4338,39.2,93,75,12.66,IS,1613334766
Valparaíso,-33.0393,-71.6273,68.0,72,40,10.36,CL,1613334639
Yenagoa,4.9247,6.2642,78.76,89,5,5.1,NG,1613334766
Melita,49.2681,-100.9967,-14.39,85,0,5.84,CA,1613334766
Santa Inês,-3.6667,-45.38,79.61,87,88,4.83,BR,1613334766
Shadrinsk,56.0852,63.6335,11.91,94,70,9.91,RU,1613334767
Pokhara,28.2333,83.9833,54.55,51,0,4.7,NP,1613334767
Saldanha,-33.0117,17.9442,66.2,82,49,5.75,ZA,1613334767
Sharan,54.8167,54.0,6.21,92,100,14.0,RU,1613334730
kimparana,12.8347,-4.9244,80.37,15,0,5.08,ML,1613334767
São João da Barra,-21.6403,-41.0511,82.4,65,20,11.5,BR,1613334768
Chipinge,-20.1883,32.6236,65.8,94,100,2.66,ZW,1613334768
Kristiansund,63.1115,7.732,30.2,43,0,9.22,NO,1613334768
Grand Gaube,-20.0064,57.6608,77.0,79,75,3.0,MU,1613334768
Gazi,35.3253,25.0669,53.6,94,90,16.11,GR,1613334768
Kyren,51.6828,102.1408,5.43,87,99,6.24,RU,1613334768
Saint Simons,31.1352,-81.3901,51.8,100,90,8.05,US,1613334769
Bartica,6.4,-58.6167,82.4,74,75,14.97,GY,1613334769
Dogondoutchi,13.6393,4.0287,80.06,15,0,8.59,NE,1613334769
Ilulissat,69.2167,-51.1,10.4,61,90,9.22,GL,1613334769
Gigmoto,13.7796,124.39,76.39,80,95,9.37,PH,1613334770
Ahipara,-35.1667,173.1667,71.49,93,100,14.5,NZ,1613334770
Talaya,61.3833,152.75,-29.42,82,100,0.78,RU,1613334770
Bozüyük,39.9078,30.0367,32.0,86,90,12.66,TR,1613334529
Magrath,49.4167,-112.8686,-2.2,65,100,16.11,CA,1613334770
Hamilton,39.1834,-84.5333,28.99,59,75,8.05,US,1613334549
Ribeira Grande,38.5167,-28.7,59.0,82,75,35.68,PT,1613334771
Kalamazoo,42.2506,-85.55,16.0,62,90,13.8,US,1613334771
Arraial do Cabo,-22.9661,-42.0278,89.6,65,75,6.91,BR,1613334771
Humaitá,-7.5061,-63.0208,78.35,93,100,2.28,BR,1613334771
Belaya Gora,68.5333,146.4167,-11.38,90,100,4.05,RU,1613334772
Bad Rappenau,49.2406,9.1025,28.0,57,100,4.88,DE,1613334772
Adrar,20.5022,-10.0711,70.48,20,0,11.07,MR,1613334772
Seabra,-12.4186,-41.7703,91.4,38,0,1.14,BR,1613334772
Lorengau,-2.0226,147.2712,82.04,77,96,6.78,PG,1613334772
Zawiercie,50.4877,19.4168,17.01,92,100,8.05,PL,1613334772
Talara,-4.5772,-81.2719,86.0,51,75,14.97,PE,1613334773
Visnes,59.3556,5.2242,39.0,60,0,28.77,NO,1613334773
Beira,-19.8436,34.8389,78.01,88,75,9.22,MZ,1613334773
San Juan del Cesar,10.7711,-73.0031,90.9,48,100,9.62,CO,1613334773
Bethel,41.3712,-73.414,36.0,60,90,6.91,US,1613334773
Téra,14.0078,0.7531,81.32,14,0,8.3,NE,1613334774
Ancud,-41.8697,-73.8203,64.4,42,0,9.22,CL,1613334774
Bereda,43.2686,-7.5406,64.0,40,100,3.0,ES,1613334774
Porto-Novo,6.4965,2.6036,84.2,84,40,13.8,BJ,1613334774
Axintele,44.6,26.7833,30.99,64,0,4.61,RO,1613334774
Saint-Joseph,-21.3667,55.6167,78.8,73,20,3.44,RE,1613334775
Fernie,49.5,-115.0687,6.8,47,99,2.3,CA,1613334775
Beian,63.6559,9.5683,32.0,59,0,18.41,NO,1613334775
Mossamedes,-15.1961,12.1522,75.34,75,100,9.8,AO,1613334775
Zaragoza,41.6561,-0.8773,52.0,81,75,16.11,ES,1613334775
Husavik,66.0449,-17.3389,41.0,70,75,4.61,IS,1613334776
Trelew,-43.249,-65.3051,68.0,37,90,26.46,AR,1613334776
Jutaí,-5.1833,-68.9,84.4,76,100,3.58,BR,1613334776
Ayan,56.45,138.1667,1.87,91,100,14.94,RU,1613334729
Miranda,3.2499,-76.2281,87.8,45,40,11.5,CO,1613334776
Tommot,58.9564,126.2925,-14.28,86,100,5.55,RU,1613334776
Vardø,70.3705,31.1107,21.2,73,75,13.8,NO,1613334777
Lodwar,3.1191,35.5973,87.55,35,95,12.55,KE,1613334777
High Level,58.5169,-117.136,-0.4,78,20,8.05,CA,1613334777
Khani,41.9563,42.9566,44.6,87,90,4.61,GE,1613334777
Kavaratti,10.5669,72.642,80.8,58,61,4.16,IN,1613334777
Katsuura,35.1333,140.3,59.0,72,100,19.39,JP,1613334778
Ambilobe,-13.2,49.05,73.94,93,96,2.26,MG,1613334778
Aktobe,50.2797,57.2072,28.4,86,75,13.42,KZ,1613334778
Rock Sound,24.9,-76.2,76.96,86,0,14.29,BS,1613334778
Sørland,67.667,12.6934,33.8,86,75,3.44,NO,1613334778
Isangel,-19.55,169.2667,82.24,76,100,7.58,VU,1613334779
Semey,50.4111,80.2275,10.22,90,5,11.97,KZ,1613334779
Torbay,47.6666,-52.7314,27.0,68,75,4.61,CA,1613334779
Saint-Avertin,47.3636,0.7399,35.6,80,0,9.22,FR,1613334779
Sola,-13.8833,167.55,81.86,81,61,13.53,VU,1613334779
Port Macquarie,-31.4333,152.9167,66.0,83,10,1.99,AU,1613334668
Grand-Santi,4.25,-54.3833,81.19,71,99,6.11,GF,1613334780
Hay River,60.8156,-115.7999,6.8,51,0,9.22,CA,1613334780
Ust-Nera,64.5667,143.2,-19.23,78,74,2.3,RU,1613334730
Dingle,10.9995,122.6711,74.34,94,100,4.5,PH,1613334780
Bilma,18.6853,12.9164,71.98,19,0,5.93,NE,1613334781
Seoul,37.5683,126.9778,44.6,87,90,3.44,KR,1613334781
Wanlaweyn,2.6185,44.8938,73.26,79,0,11.34,SO,1613334781
Duku,11.2361,4.9073,79.66,15,12,1.45,NG,1613334781
Ochtrup,52.2167,7.1833,30.99,55,0,4.61,DE,1613334781
Departamento de Maldonado,-34.6667,-54.9167,77.0,83,75,9.22,UY,1613334708
Camargo,27.6667,-105.1667,69.15,23,90,31.85,MX,1613334782
Bubaque,11.2833,-15.8333,77.41,71,92,15.52,GW,1613334782
Yar-Sale,66.8333,70.8333,-25.28,85,100,13.13,RU,1613334782
Byron Bay,-28.65,153.6167,66.2,82,90,9.22,AU,1613334658
Albeşti,47.7,27.0667,27.0,80,90,13.8,RO,1613334782
Kirensk,57.7853,108.1119,-15.0,87,94,3.44,RU,1613334783
Lafia,8.4833,8.5167,85.12,20,0,2.01,NG,1613334783
Spornoye,50.8448,37.2913,8.6,78,0,8.95,RU,1613334783
Plainview,40.7765,-73.4673,37.4,65,90,8.05,US,1613334783
Nushki,29.5542,66.0215,57.06,31,0,3.91,PK,1613334784
Nyimba,-14.5566,30.8149,70.27,90,82,3.11,ZM,1613334784
Broken Hill,-31.95,141.4333,60.8,36,0,8.05,AU,1613334784
Chanika,-5.4167,38.0167,68.79,97,97,2.21,TZ,1613334784
Nabire,-3.3667,135.4833,74.89,84,100,4.34,ID,1613334784
Buta,2.7858,24.73,78.24,55,48,1.88,CD,1613334785
Tomatlán,19.9333,-105.25,77.83,43,0,11.45,MX,1613334785
Arteaga,18.4667,-102.4167,72.99,42,0,7.65,MX,1613334785
Cabo San Lucas,22.8909,-109.9124,79.0,63,20,24.16,MX,1613334732
Karlshamn,56.1706,14.8619,23.0,86,0,4.61,SE,1613334785
Buchanan,5.8808,-10.0467,80.55,83,57,6.24,LR,1613334786
Alofi,-19.0595,-169.9187,82.4,74,40,9.22,NU,1613334786
Bacolod City,10.6667,122.95,75.63,89,100,9.8,PH,1613334786
Sorong,-0.8833,131.25,81.07,76,100,3.69,ID,1613334786
Lavrentiya,65.5833,-171.0,-11.09,85,31,12.15,RU,1613334786
San Policarpo,12.1791,125.5072,78.71,86,99,11.14,PH,1613334787
Gua Musang,4.8823,101.9644,67.5,93,15,1.39,MY,1613334787
Fairbanks,64.8378,-147.7164,7.0,69,1,0.09,US,1613334787
Akdepe,42.0551,59.3788,33.8,93,0,4.61,TM,1613334787
Jizan,17.3333,42.6667,78.8,78,1,3.44,SA,1613334787
Flin Flon,54.7682,-101.865,-0.4,71,20,4.61,CA,1613334609
Zambezi,-13.5432,23.1047,67.8,74,94,3.4,ZM,1613334788
Tevriz,57.509,72.4042,28.31,98,100,12.59,RU,1613334788
Muğla Province,37.2303,28.3557,59.0,94,75,10.36,TR,1613334558
Plettenberg Bay,-34.0527,23.3716,67.78,85,99,8.9,ZA,1613334788
Omboué,-1.5746,9.2618,79.21,88,100,7.05,GA,1613334789
Xuanzhou,30.9525,118.7553,51.48,79,0,3.76,CN,1613334789
Felipe Carrillo Puerto,19.5833,-88.05,84.49,63,30,4.79,MX,1613334789
Ippy,6.2679,21.2247,81.37,22,1,3.85,CF,1613334789
Eshowe,-28.8865,31.4699,69.93,100,100,2.53,ZA,1613334789
Puerto Madryn,-42.7692,-65.0385,68.0,37,90,26.46,AR,1613334789
Kutum,14.2,24.6667,64.36,26,0,7.25,SD,1613334790
Kahului,20.8947,-156.47,78.8,65,20,3.44,US,1613334790
Yaan,7.3833,8.5667,86.29,31,1,2.35,NG,1613334790
Comodoro Rivadavia,-45.8667,-67.5,66.2,37,0,8.05,AR,1613334790
Liku,-0.7275,119.8922,73.62,80,100,2.46,ID,1613334791
Ust'-Omchug,61.15,149.6333,-23.66,82,9,3.02,RU,1613334791
Yeppoon,-23.1333,150.7333,73.4,88,90,8.05,AU,1613334791
Port Hardy,50.6996,-127.4199,39.2,87,90,26.46,CA,1613334791
Hofn,64.2539,-15.2082,42.64,93,100,21.16,IS,1613334791
Klaksvík,62.2266,-6.589,44.6,93,75,33.38,FO,1613334791
Beloha,-25.1667,45.05,75.83,70,2,10.83,MG,1613334792
Kathu,7.9178,98.3332,75.2,88,20,3.44,TH,1613334792
Xining,36.6167,101.7667,21.58,89,100,1.61,CN,1613334792
Kavieng,-2.5744,150.7967,82.71,76,58,7.49,PG,1613334792
Sitka,57.0531,-135.33,35.6,38,75,5.75,US,1613334792
Marzuq,14.4,46.4667,60.1,53,0,2.1,YE,1613334792
Kemijärvi,66.7131,27.4306,5.34,92,38,3.31,FI,1613334793
Berlevåg,70.8578,29.0864,23.0,86,75,16.11,NO,1613334793
Tiznit Province,29.5833,-9.5,65.19,46,0,2.44,MA,1613334793
Iguape,-24.7081,-47.5553,82.87,73,64,7.4,BR,1613334793
Juneau,58.3019,-134.4197,27.0,68,75,3.44,US,1613334793
Tianpeng,30.9866,103.9393,55.99,1,99,3.87,CN,1613334794
Dunedin,-45.8742,170.5036,57.0,90,100,1.01,NZ,1613334744
Santa Maria,-29.6842,-53.8069,82.4,57,40,6.91,BR,1613334794
Zabul Province,32.25,67.25,43.92,53,0,4.94,AF,1613334794
Abonnema,4.7084,6.7931,75.2,88,75,3.44,NG,1613334732
Northam,51.0333,-4.2167,51.01,94,100,11.99,GB,1613334794
Ayagoz,47.9714,80.4392,12.27,83,1,2.08,KZ,1613334795
Hornepayne,49.2138,-84.7705,0.64,91,100,6.64,CA,1613334795
Mulegé,26.8833,-111.9833,69.66,34,59,12.41,MX,1613334795
Gornyy,55.1153,83.9059,19.49,97,100,12.08,RU,1613334795
Altamont,42.2068,-121.7372,34.0,80,90,11.5,US,1613334795
Deputatsky,69.3,139.9,-14.71,87,100,1.05,RU,1613334795
Kushiro,42.975,144.3747,29.91,95,100,4.94,JP,1613334796
Kaeo,-35.1,173.7833,71.01,98,100,15.01,NZ,1613334796
Shenjiamen,29.9576,122.298,51.13,87,0,15.77,CN,1613334796
Manokwari,-0.8667,134.0833,78.21,75,100,4.88,ID,1613334796
Ulladulla,-35.35,150.4667,64.0,94,75,6.91,AU,1613334796
Nurota,40.5614,65.6886,41.0,70,0,6.91,UZ,1613334796
Moose Factory,51.2585,-80.6094,1.4,65,90,9.22,CA,1613334797
Fortuna Foothills,32.6578,-114.4119,68.0,14,1,16.11,US,1613334797
Kathmandu,27.7167,85.3167,51.8,87,20,1.59,NP,1613334797
Kozhva,65.1073,57.0459,-11.6,90,100,4.38,RU,1613334797
La Grande,45.3246,-118.0877,30.2,80,100,5.1,US,1613334797
Celestún,20.8667,-90.4,79.97,58,18,6.49,MX,1613334798
Okmulgee,35.6234,-95.9605,6.8,72,90,14.97,US,1613334798
Oodweyne,9.4092,45.064,68.2,24,0,10.0,SO,1613334798
Opuwo,-18.0607,13.84,67.62,72,98,7.36,NA,1613334798
Mount Isa,-20.7333,139.5,77.0,100,40,8.03,AU,1613334607
Boden,65.8252,21.6886,3.2,85,0,2.55,SE,1613334504
Henties Bay,-22.116,14.2845,65.07,84,2,8.08,NA,1613334799
Padang,-0.9492,100.3543,77.0,94,75,1.14,ID,1613334799
Port Keats,-14.25,129.55,80.51,84,100,2.48,AU,1613334799
Rosetta,31.4044,30.4164,59.0,58,40,3.44,EG,1613334799
Royal Palm Beach,26.7084,-80.2306,87.01,83,75,13.8,US,1613334580
Sur,22.5667,59.5289,69.67,71,0,5.48,OM,1613334799
Rio Grande,-32.035,-52.0986,73.4,56,40,4.61,BR,1613334699
Matara,5.9485,80.5353,75.52,90,100,1.95,LK,1613334713
Kodinsk,58.6881,99.1844,-25.08,85,11,2.06,RU,1613334800
Cayenne,4.9333,-52.3333,80.6,83,75,4.61,GF,1613334800
Manggar,-2.8833,108.2667,78.13,84,37,12.01,ID,1613334800
Saint-Leu,-21.15,55.2833,78.8,73,20,3.44,RE,1613334801
Manaure,11.7751,-72.4445,88.2,53,52,16.78,CO,1613334801
Kohtla-Järve,59.3986,27.2731,9.19,95,100,8.14,EE,1613334801
Gamba,-2.65,10.0,79.52,86,100,6.44,GA,1613334801
Zhigansk,66.7697,123.3711,-24.81,85,91,8.75,RU,1613334801
Richards Bay,-28.783,32.0377,76.75,93,100,5.35,ZA,1613334801
The Valley,18.217,-63.0578,82.4,69,20,14.97,AI,1613334802
Kongolo,-5.3833,27.0,73.96,88,100,2.17,CD,1613334802
Starosubkhangulovo,53.1031,57.4423,8.51,89,100,10.96,RU,1613334802
Fairfield,41.2668,-73.3162,37.0,60,90,6.91,US,1613334802
Quila,24.4228,-107.22,73.99,53,75,9.22,MX,1613334802
Rāmshīr,30.8946,49.4092,62.6,67,0,7.67,IR,1613334802
Sulangan,11.1373,123.7228,77.23,92,100,17.07,PH,1613334803
Sharjah city,25.3573,55.4033,69.8,94,0,2.3,AE,1613334803
Mvomero,-6.25,38.6667,82.4,78,40,5.75,TZ,1613334803
Newport,51.5877,-2.9984,46.99,93,100,1.01,GB,1613334598
Pacasmayo,-7.4006,-79.5714,77.31,64,7,13.67,PE,1613334803
Terra Santa,-2.1042,-56.4869,78.94,93,100,1.25,BR,1613334804
Trairi,-3.2778,-39.2689,79.21,83,21,6.44,BR,1613334804
Biloela,-24.4167,150.5,70.83,77,25,13.89,AU,1613334804
Bayjī,34.9311,43.487,60.71,45,0,2.64,IQ,1613334804
Taldan,53.6667,124.8,-17.59,88,96,3.65,RU,1613334804
Panindícuaro,19.9667,-101.7667,66.2,34,1,11.5,MX,1613334804
Mt. Pleasant,32.7941,-79.8626,45.0,100,90,6.91,US,1613334805
Tsaratanana,-16.7833,47.65,72.05,88,100,0.38,MG,1613334805
Labuhan,-6.8844,112.2051,77.09,86,100,5.3,ID,1613334805
Atchison,39.563,-95.1216,1.99,65,90,17.27,US,1613334805
Altay,47.8667,88.1167,13.39,71,1,1.9,CN,1613334806
The Pas,53.8251,-101.2541,-4.0,77,90,10.36,CA,1613334806
Teacapan,22.55,-105.75,73.18,51,0,11.65,MX,1613334806
Huancabamba,-5.2386,-79.4506,62.69,82,94,5.12,PE,1613334806
Peleduy,59.6289,112.7406,-18.53,86,98,3.4,RU,1613334806
Pacific Grove,36.6177,-121.9166,55.0,62,90,10.36,US,1613334764
Necochea,-38.5473,-58.7368,69.01,89,100,11.01,AR,1613334807
Paamiut,61.994,-49.6678,8.78,90,2,14.97,GL,1613334807
Cedar City,37.6775,-113.0619,33.8,60,75,16.11,US,1613334807
Carutapera,-1.195,-46.02,78.37,88,100,7.31,BR,1613334807
Tiarei,-17.5333,-149.3333,86.0,66,20,16.11,PF,1613334808
Santarém,-2.4431,-54.7083,80.6,89,75,4.61,BR,1613334798
Nuuk,64.1835,-51.7216,14.0,62,90,3.44,GL,1613334808
Kruisfontein,-34.0033,24.7314,69.01,91,100,1.99,ZA,1613334809
Oddur,4.1213,43.8894,69.03,78,0,16.02,SO,1613334809
Nemuro,43.3236,145.575,32.13,93,73,3.8,JP,1613334809
Xinqing,48.2333,129.5,-9.36,90,96,1.63,CN,1613334809
Inta,66.0317,60.1659,-7.62,89,100,17.76,RU,1613334809
Bambous Virieux,-20.3428,57.7575,77.0,88,40,3.44,MU,1613334809
Khatanga,71.9667,102.5,-34.06,83,94,1.54,RU,1613334810
Narrabri,-30.3167,149.7833,60.01,77,1,10.36,AU,1613334531
Bonavista,48.6499,-53.1147,27.0,63,100,4.61,CA,1613334810
Koulamoutou,-1.1303,12.4736,75.0,91,100,1.83,GA,1613334810
Mayumba,-3.432,10.6554,80.46,85,100,7.85,GA,1613334810
La Palma,33.8464,-118.0467,69.8,28,40,3.44,US,1613334706
Werda,-25.2667,23.2833,79.5,46,12,15.59,BW,1613334811
Kismayo,-0.3582,42.5454,76.75,84,0,16.15,SO,1613334549
Yārāda,17.65,83.2667,69.8,88,0,2.3,IN,1613334811
Ndendé,-2.4008,11.3581,75.07,94,100,2.66,GA,1613334811
Swift Current,50.2834,-107.8014,-9.4,77,1,12.66,CA,1613334811
San Quintín,30.4833,-115.95,60.84,66,100,17.63,MX,1613334812
Matagami,49.7502,-77.6328,3.2,78,100,8.05,CA,1613334812
Ixtapa,20.7,-105.2,75.2,53,40,9.22,MX,1613334739
Assiut,27.181,31.1837,57.2,58,0,9.22,EG,1613334646
Vila,42.0304,-8.1588,52.0,76,98,1.01,PT,1613334812
Agadez,19.75,10.25,68.4,22,0,6.08,NE,1613334813
Sechura,-5.5569,-80.8222,81.88,59,15,15.57,PE,1613334813
Margherita,27.2833,95.6833,62.96,62,62,2.21,IN,1613334813
Bethanien,-26.502,17.1583,69.64,30,0,12.97,NA,1613334813
Palmer,42.1584,-72.3287,35.01,64,90,1.72,US,1613334813
Emmett,43.8735,-116.4993,33.01,74,95,2.53,US,1613334814
Qaqortoq,60.7167,-46.0333,32.0,74,75,1.54,GL,1613334814
Strausberg,52.5786,13.8874,24.01,80,0,4.5,DE,1613334814
Philadelphia,39.9523,-75.1638,37.0,80,90,4.61,US,1613334603
Skibbereen,51.55,-9.2667,46.4,100,75,11.5,IE,1613334814
Tornio,65.8481,24.1466,-9.4,77,0,2.3,FI,1613334814
Tsaitien,30.5833,114.0333,50.0,100,0,6.71,CN,1613334815
El Sauzal de Rodríguez,31.9,-116.6833,63.0,77,100,5.01,MX,1613334815
Smidovich,48.6,133.8167,-4.29,88,16,5.77,RU,1613334815
Teya,60.3778,92.6267,-24.0,82,0,1.88,RU,1613334815
Taoudenni,22.6783,-3.9836,75.79,21,0,24.34,ML,1613334815
Maragogi,-9.0122,-35.2225,79.21,79,39,10.25,BR,1613334816
Ankara,39.9199,32.8543,44.01,56,75,6.91,TR,1613334816
Yuanping,38.7153,112.7575,24.3,68,0,10.76,CN,1613334816
Fairview,40.8126,-73.999,37.99,69,90,3.44,US,1613334816
Diego de Almagro,-26.3667,-70.05,79.41,22,0,15.19,CL,1613334817
Shimoni,-4.6476,39.3817,79.39,81,49,10.09,KE,1613334817
Mga,59.75,31.0667,1.99,43,100,4.74,RU,1613334730
Krasnoarmiys'k,48.282,37.1758,13.19,97,87,7.63,UA,1613334817
Ingham,42.6,-84.3833,18.0,57,40,10.36,US,1613334817
Ostrovnoy,68.0531,39.5131,1.15,93,62,12.62,RU,1613334817
Monrovia,6.3005,-10.7969,80.69,84,1,7.31,LR,1613334818
Malindi,-3.2175,40.1191,80.6,78,40,13.8,KE,1613334791
Tezu,27.9167,96.1667,63.99,49,84,5.48,IN,1613334818
Alamogordo,32.8995,-105.9603,23.0,93,90,11.5,US,1613334750
Calabozo,8.9242,-67.4293,96.15,31,100,10.6,VE,1613334818
Buraidah,26.326,43.975,66.2,48,0,4.61,SA,1613334526
Ambulu,-8.345,113.6058,75.09,86,93,2.86,ID,1613334819
Grand Forks,47.9417,-97.4337,-7.6,49,1,9.22,US,1613334819
Hervey Bay,-25.2986,152.8535,69.01,91,31,11.01,AU,1613334819
Metro,-5.1131,105.3067,73.51,95,100,6.15,ID,1613334819
Ambovombe,-25.1667,46.0833,76.82,74,1,16.73,MG,1613334819
Marabá,-5.3686,-49.1178,82.4,89,75,8.05,BR,1613334820
Havelock,34.8791,-76.9013,42.8,93,90,16.11,US,1613334820
Mattru,7.6244,-11.8332,78.62,85,1,4.21,SL,1613334820
Rocha,-34.4833,-54.3333,76.5,79,99,5.99,UY,1613334625
Masumbwe,-3.6333,32.1833,66.2,88,99,1.66,TZ,1613334820
Thinadhoo,0.5333,72.9333,81.97,76,97,11.43,MV,1613334821
Coquimbo,-29.9533,-71.3436,68.0,68,40,13.8,CL,1613334556
Arrondissement du Havre,49.5833,0.3333,35.6,64,90,16.11,FR,1613334821
Huesca,42.1362,-0.4087,44.01,93,90,9.22,ES,1613334821
Brae,60.3964,-1.353,42.8,93,90,36.82,GB,1613334821
Andilamena,-17.0167,48.5833,65.21,97,100,4.61,MG,1613334821
Dhule,20.9,74.7833,75.18,29,0,6.24,IN,1613334822
Neiafu,-18.65,-173.9833,78.8,94,40,3.44,TO,1613334822
Helong,42.5397,128.9972,19.15,94,100,4.63,CN,1613334822
Pochutla,15.7432,-96.4661,87.8,33,1,17.27,MX,1613334822
Havøysund,70.9963,24.6622,30.2,93,75,14.97,NO,1613334823
Westport,41.1415,-73.3579,37.0,69,90,6.91,US,1613334823
Birao,10.2849,22.7882,80.51,18,0,6.8,CF,1613334823
San Fernando del Valle de Catamarca,-28.4696,-65.7852,91.99,42,10,5.99,AR,1613334823
Moissac,44.1024,1.0945,44.6,76,0,11.5,FR,1613334823
Zhaotong,27.3167,103.7167,45.16,81,99,5.82,CN,1613334823
Kampong Thom,12.7111,104.8887,69.91,79,13,7.78,KH,1613334824
Laguna,38.421,-121.4238,57.99,47,90,6.91,US,1613334824
San Ramon,37.7799,-121.978,55.99,58,90,6.91,US,1613334787
Baykit,61.67,96.37,-29.87,77,0,1.59,RU,1613334824
Polignano a Mare,40.9959,17.2159,39.99,60,75,18.41,IT,1613334824
Ponta Delgada,37.7333,-25.6667,60.01,72,75,19.57,PT,1613334824
Ambanja,-13.6833,48.45,74.46,88,92,3.29,MG,1613334825
Otradnoye,59.7775,30.8181,14.0,73,75,8.95,RU,1613334825
Pemba,-12.974,40.5178,77.0,94,75,10.36,MZ,1613334825
Eyl,7.9803,49.8164,72.68,79,0,11.79,SO,1613334565
Nadym,65.5333,72.5167,-22.56,84,100,17.96,RU,1613334825
Colares,38.7992,-9.4469,59.0,71,0,2.3,PT,1613334825
Santa Fe,-31.6333,-60.7,91.0,38,53,3.0,AR,1613334765
Acapulco de Juárez,16.8634,-99.8901,80.6,50,20,10.36,MX,1613334826
Arlit,18.7369,7.3853,73.02,18,0,6.76,NE,1613334826
Ntcheu,-14.8203,34.6359,66.07,92,94,5.12,MW,1613334826
Yangi Marg`ilon,40.4272,71.7189,41.0,70,100,6.91,UZ,1613334826
Djambala,-2.5447,14.7533,72.18,85,76,3.09,CG,1613334827
Illapel,-31.6308,-71.1653,78.22,37,0,8.72,CL,1613334827
Jinchang,38.4953,102.1739,27.34,85,11,3.4,CN,1613334827
Popondetta,-8.7537,148.2534,75.29,89,100,2.68,PG,1613334827
Beidao,34.5686,105.8933,40.12,65,100,3.33,CN,1613334827
Kota Kinabalu,5.9749,116.0724,75.2,94,40,4.61,MY,1613334828
Almeirim,-1.5233,-52.5817,79.45,90,100,4.23,BR,1613334828
Mastic Beach,40.7668,-72.8521,37.4,65,75,6.35,US,1613334828
Carballo,43.213,-8.691,59.0,58,0,14.97,ES,1613334828
Oktyabr'skiy,54.4815,53.471,4.86,92,99,13.67,RU,1613334828
Saint-Pierre,-21.3393,55.4781,78.8,73,20,3.44,RE,1613334828
Poum,-20.2333,164.0167,79.34,74,75,4.16,NC,1613334829
Harrison,30.4091,-89.0436,46.4,71,90,13.8,US,1613334543
Tombouctou,20.0,-3.0,77.95,14,0,11.79,ML,1613334829
Hirara,24.8,125.2833,68.79,75,0,20.11,JP,1613334829
Gravdal,68.1214,13.5031,33.8,86,75,3.44,NO,1613334829
Yarmouth,41.7057,-70.2286,37.99,81,90,10.36,US,1613334829
Pandan,14.0453,124.1694,76.89,77,89,8.75,PH,1613334830
Caiapônia,-16.9567,-51.8103,76.06,88,100,4.38,BR,1613334824
Port Moresby,-9.4431,147.1797,75.2,100,75,4.61,PG,1613334830
Port Augusta,-32.5,137.7667,59.0,88,0,6.91,AU,1613334830
Riyadh,24.6877,46.7219,69.8,19,0,4.61,SA,1613334603
Bonthe,7.5264,-12.505,79.36,86,8,7.63,SL,1613334831
Rongcheng,30.634,117.8517,52.57,78,0,2.35,CN,1613334831
